{
  "2": {
    "train_info": {
      "train_id": 2,
      "current_station_id": 7,
      "line": "KJL",
      "direction": "forward",
      "status": "active",
      "current_station_name": "Dato' Keramat",
      "latitude": 3.3156,
      "longitude": 101.6858
    },
    "expected_route": [
      {
        "step": 0,
        "station_name": "Dato' Keramat",
        "station_id": 7,
        "latitude": 3.3156,
        "longitude": 101.6858,
        "direction": "forward",
        "action": "Current Position"
      },
      {
        "step": 1,
        "station_name": "Damai",
        "station_id": 8,
        "latitude": 3.3241,
        "longitude": 101.6913,
        "direction": "forward",
        "action": "Move forward"
      },
      {
        "step": 2,
        "station_name": "Ampang Park",
        "station_id": 9,
        "latitude": 3.3326,
        "longitude": 101.6967,
        "direction": "forward",
        "action": "Move forward"
      },
      {
        "step": 3,
        "station_name": "KLCC",
        "station_id": 10,
        "latitude": 3.1588,
        "longitude": 101.7123,
        "direction": "forward",
        "action": "Move forward"
      },
      {
        "step": 4,
        "station_name": "Kampung Baru",
        "station_id": 11,
        "latitude": 3.1673,
        "longitude": 101.7068,
        "direction": "forward",
        "action": "Move forward"
      },
      {
        "step": 5,
        "station_name": "Dang Wangi",
        "station_id": 12,
        "latitude": 3.1588,
        "longitude": 101.7014,
        "direction": "forward",
        "action": "Move forward"
      },
      {
        "step": 6,
        "station_name": "Masjid Jamek (KJL)",
        "station_id": 13,
        "latitude": 3.1503,
        "longitude": 101.6959,
        "direction": "forward",
        "action": "Move forward"
      },
      {
        "step": 7,
        "station_name": "Pasar Seni (KJL)",
        "station_id": 14,
        "latitude": 3.1418,
        "longitude": 101.6905,
        "direction": "forward",
        "action": "Move forward"
      },
      {
        "step": 8,
        "station_name": "KL Sentral (KJL)",
        "station_id": 15,
        "latitude": 3.1333,
        "longitude": 101.685,
        "direction": "forward",
        "action": "Move forward"
      },
      {
        "step": 9,
        "station_name": "Bangsar",
        "station_id": 16,
        "latitude": 3.1248,
        "longitude": 101.6795,
        "direction": "forward",
        "action": "Move forward"
      },
      {
        "step": 10,
        "station_name": "Abdullah Hukum",
        "station_id": 17,
        "latitude": 3.1163,
        "longitude": 101.6741,
        "direction": "forward",
        "action": "Move forward"
      },
      {
        "step": 11,
        "station_name": "Kerinchi",
        "station_id": 18,
        "latitude": 3.1078,
        "longitude": 101.6686,
        "direction": "forward",
        "action": "Move forward"
      },
      {
        "step": 12,
        "station_name": "Universiti",
        "station_id": 19,
        "latitude": 3.0993,
        "longitude": 101.6631,
        "direction": "forward",
        "action": "Move forward"
      },
      {
        "step": 13,
        "station_name": "Taman Jaya",
        "station_id": 20,
        "latitude": 3.0908,
        "longitude": 101.6577,
        "direction": "forward",
        "action": "Move forward"
      },
      {
        "step": 14,
        "station_name": "Asia Jaya",
        "station_id": 21,
        "latitude": 3.0823,
        "longitude": 101.6522,
        "direction": "forward",
        "action": "Move forward"
      },
      {
        "step": 15,
        "station_name": "Taman Paramount",
        "station_id": 22,
        "latitude": 3.0738,
        "longitude": 101.6467,
        "direction": "forward",
        "action": "Move forward"
      }
    ]
  },
  "11": {
    "train_info": {
      "train_id": 11,
      "current_station_id": 15,
      "line": "KJL",
      "direction": "forward",
      "status": "active",
      "current_station_name": "KL Sentral (KJL)",
      "latitude": 3.1333,
      "longitude": 101.685
    },
    "expected_route": [
      {
        "step": 0,
        "station_name": "KL Sentral (KJL)",
        "station_id": 15,
        "latitude": 3.1333,
        "longitude": 101.685,
        "direction": "forward",
        "action": "Current Position"
      },
      {
        "step": 1,
        "station_name": "Bangsar",
        "station_id": 16,
        "latitude": 3.1248,
        "longitude": 101.6795,
        "direction": "forward",
        "action": "Move forward"
      },
      {
        "step": 2,
        "station_name": "Abdullah Hukum",
        "station_id": 17,
        "latitude": 3.1163,
        "longitude": 101.6741,
        "direction": "forward",
        "action": "Move forward"
      },
      {
        "step": 3,
        "station_name": "Kerinchi",
        "station_id": 18,
        "latitude": 3.1078,
        "longitude": 101.6686,
        "direction": "forward",
        "action": "Move forward"
      },
      {
        "step": 4,
        "station_name": "Universiti",
        "station_id": 19,
        "latitude": 3.0993,
        "longitude": 101.6631,
        "direction": "forward",
        "action": "Move forward"
      },
      {
        "step": 5,
        "station_name": "Taman Jaya",
        "station_id": 20,
        "latitude": 3.0908,
        "longitude": 101.6577,
        "direction": "forward",
        "action": "Move forward"
      },
      {
        "step": 6,
        "station_name": "Asia Jaya",
        "station_id": 21,
        "latitude": 3.0823,
        "longitude": 101.6522,
        "direction": "forward",
        "action": "Move forward"
      },
      {
        "step": 7,
        "station_name": "Taman Paramount",
        "station_id": 22,
        "latitude": 3.0738,
        "longitude": 101.6467,
        "direction": "forward",
        "action": "Move forward"
      },
      {
        "step": 8,
        "station_name": "Taman Bahagia",
        "station_id": 23,
        "latitude": 3.0653,
        "longitude": 101.6413,
        "direction": "forward",
        "action": "Move forward"
      },
      {
        "step": 9,
        "station_name": "Kelana Jaya",
        "station_id": 24,
        "latitude": 3.1068,
        "longitude": 101.5889,
        "direction": "forward",
        "action": "Move forward"
      },
      {
        "step": 10,
        "station_name": "Lembah Subang",
        "station_id": 25,
        "latitude": 3.0983,
        "longitude": 101.5834,
        "direction": "forward",
        "action": "Move forward"
      },
      {
        "step": 11,
        "station_name": "Ara Damansara",
        "station_id": 26,
        "latitude": 3.0898,
        "longitude": 101.578,
        "direction": "forward",
        "action": "Move forward"
      },
      {
        "step": 12,
        "station_name": "Glenmarie",
        "station_id": 27,
        "latitude": 3.0813,
        "longitude": 101.5725,
        "direction": "forward",
        "action": "Move forward"
      },
      {
        "step": 13,
        "station_name": "Subang Jaya",
        "station_id": 28,
        "latitude": 3.0728,
        "longitude": 101.567,
        "direction": "forward",
        "action": "Move forward"
      },
      {
        "step": 14,
        "station_name": "SS 15",
        "station_id": 29,
        "latitude": 3.0643,
        "longitude": 101.5616,
        "direction": "forward",
        "action": "Move forward"
      },
      {
        "step": 15,
        "station_name": "SS 18",
        "station_id": 30,
        "latitude": 3.0558,
        "longitude": 101.5561,
        "direction": "forward",
        "action": "Move forward"
      }
    ]
  },
  "12": {
    "train_info": {
      "train_id": 12,
      "current_station_id": 25,
      "line": "KJL",
      "direction": "forward",
      "status": "active",
      "current_station_name": "Lembah Subang",
      "latitude": 3.0983,
      "longitude": 101.5834
    },
    "expected_route": [
      {
        "step": 0,
        "station_name": "Lembah Subang",
        "station_id": 25,
        "latitude": 3.0983,
        "longitude": 101.5834,
        "direction": "forward",
        "action": "Current Position"
      },
      {
        "step": 1,
        "station_name": "Ara Damansara",
        "station_id": 26,
        "latitude": 3.0898,
        "longitude": 101.578,
        "direction": "forward",
        "action": "Move forward"
      },
      {
        "step": 2,
        "station_name": "Glenmarie",
        "station_id": 27,
        "latitude": 3.0813,
        "longitude": 101.5725,
        "direction": "forward",
        "action": "Move forward"
      },
      {
        "step": 3,
        "station_name": "Subang Jaya",
        "station_id": 28,
        "latitude": 3.0728,
        "longitude": 101.567,
        "direction": "forward",
        "action": "Move forward"
      },
      {
        "step": 4,
        "station_name": "SS 15",
        "station_id": 29,
        "latitude": 3.0643,
        "longitude": 101.5616,
        "direction": "forward",
        "action": "Move forward"
      },
      {
        "step": 5,
        "station_name": "SS 18",
        "station_id": 30,
        "latitude": 3.0558,
        "longitude": 101.5561,
        "direction": "forward",
        "action": "Move forward"
      },
      {
        "step": 6,
        "station_name": "USJ 7 (KJL)",
        "station_id": 31,
        "latitude": 3.0473,
        "longitude": 101.5506,
        "direction": "forward",
        "action": "Move forward"
      },
      {
        "step": 7,
        "station_name": "Taipan",
        "station_id": 32,
        "latitude": 3.0388,
        "longitude": 101.5452,
        "direction": "forward",
        "action": "Move forward"
      },
      {
        "step": 8,
        "station_name": "Wawasan",
        "station_id": 33,
        "latitude": 3.0303,
        "longitude": 101.5397,
        "direction": "forward",
        "action": "Move forward"
      },
      {
        "step": 9,
        "station_name": "USJ 21",
        "station_id": 34,
        "latitude": 3.0218,
        "longitude": 101.5342,
        "direction": "forward",
        "action": "Move forward"
      },
      {
        "step": 10,
        "station_name": "Alam Megah",
        "station_id": 35,
        "latitude": 3.0133,
        "longitude": 101.5288,
        "direction": "forward",
        "action": "Move forward"
      },
      {
        "step": 11,
        "station_name": "Subang Alam",
        "station_id": 36,
        "latitude": 3.0048,
        "longitude": 101.5233,
        "direction": "forward",
        "action": "Move forward"
      },
      {
        "step": 12,
        "station_name": "Putra Heights (KJL)",
        "station_id": 37,
        "latitude": 2.9963,
        "longitude": 101.5178,
        "direction": "forward",
        "action": "Move forward"
      },
      {
        "step": 13,
        "station_name": "Subang Alam",
        "station_id": 36,
        "latitude": 3.0048,
        "longitude": 101.5233,
        "direction": "backward",
        "action": "Direction change to backward"
      },
      {
        "step": 14,
        "station_name": "Alam Megah",
        "station_id": 35,
        "latitude": 3.0133,
        "longitude": 101.5288,
        "direction": "backward",
        "action": "Move backward"
      },
      {
        "step": 15,
        "station_name": "USJ 21",
        "station_id": 34,
        "latitude": 3.0218,
        "longitude": 101.5342,
        "direction": "backward",
        "action": "Move backward"
      }
    ]
  },
  "13": {
    "train_info": {
      "train_id": 13,
      "current_station_id": 35,
      "line": "KJL",
      "direction": "forward",
      "status": "active",
      "current_station_name": "Alam Megah",
      "latitude": 3.0133,
      "longitude": 101.5288
    },
    "expected_route": [
      {
        "step": 0,
        "station_name": "Alam Megah",
        "station_id": 35,
        "latitude": 3.0133,
        "longitude": 101.5288,
        "direction": "forward",
        "action": "Current Position"
      },
      {
        "step": 1,
        "station_name": "USJ 21",
        "station_id": 34,
        "latitude": 3.0218,
        "longitude": 101.5342,
        "direction": "backward",
        "action": "Move backward"
      },
      {
        "step": 2,
        "station_name": "Wawasan",
        "station_id": 33,
        "latitude": 3.0303,
        "longitude": 101.5397,
        "direction": "backward",
        "action": "Move backward"
      },
      {
        "step": 3,
        "station_name": "Taipan",
        "station_id": 32,
        "latitude": 3.0388,
        "longitude": 101.5452,
        "direction": "backward",
        "action": "Move backward"
      },
      {
        "step": 4,
        "station_name": "USJ 7 (KJL)",
        "station_id": 31,
        "latitude": 3.0473,
        "longitude": 101.5506,
        "direction": "backward",
        "action": "Move backward"
      },
      {
        "step": 5,
        "station_name": "SS 18",
        "station_id": 30,
        "latitude": 3.0558,
        "longitude": 101.5561,
        "direction": "backward",
        "action": "Move backward"
      },
      {
        "step": 6,
        "station_name": "SS 15",
        "station_id": 29,
        "latitude": 3.0643,
        "longitude": 101.5616,
        "direction": "backward",
        "action": "Move backward"
      },
      {
        "step": 7,
        "station_name": "Subang Jaya",
        "station_id": 28,
        "latitude": 3.0728,
        "longitude": 101.567,
        "direction": "backward",
        "action": "Move backward"
      },
      {
        "step": 8,
        "station_name": "Glenmarie",
        "station_id": 27,
        "latitude": 3.0813,
        "longitude": 101.5725,
        "direction": "backward",
        "action": "Move backward"
      },
      {
        "step": 9,
        "station_name": "Ara Damansara",
        "station_id": 26,
        "latitude": 3.0898,
        "longitude": 101.578,
        "direction": "backward",
        "action": "Move backward"
      },
      {
        "step": 10,
        "station_name": "Lembah Subang",
        "station_id": 25,
        "latitude": 3.0983,
        "longitude": 101.5834,
        "direction": "backward",
        "action": "Move backward"
      },
      {
        "step": 11,
        "station_name": "Kelana Jaya",
        "station_id": 24,
        "latitude": 3.1068,
        "longitude": 101.5889,
        "direction": "backward",
        "action": "Move backward"
      },
      {
        "step": 12,
        "station_name": "Taman Bahagia",
        "station_id": 23,
        "latitude": 3.0653,
        "longitude": 101.6413,
        "direction": "backward",
        "action": "Move backward"
      },
      {
        "step": 13,
        "station_name": "Taman Paramount",
        "station_id": 22,
        "latitude": 3.0738,
        "longitude": 101.6467,
        "direction": "backward",
        "action": "Move backward"
      },
      {
        "step": 14,
        "station_name": "Asia Jaya",
        "station_id": 21,
        "latitude": 3.0823,
        "longitude": 101.6522,
        "direction": "backward",
        "action": "Move backward"
      },
      {
        "step": 15,
        "station_name": "Taman Jaya",
        "station_id": 20,
        "latitude": 3.0908,
        "longitude": 101.6577,
        "direction": "backward",
        "action": "Move backward"
      }
    ]
  },
  "14": {
    "train_info": {
      "train_id": 14,
      "current_station_id": 5,
      "line": "KJL",
      "direction": "forward",
      "status": "active",
      "current_station_name": "Setiawangsa",
      "latitude": 3.2986,
      "longitude": 101.675
    },
    "expected_route": [
      {
        "step": 0,
        "station_name": "Setiawangsa",
        "station_id": 5,
        "latitude": 3.2986,
        "longitude": 101.675,
        "direction": "forward",
        "action": "Current Position"
      },
      {
        "step": 1,
        "station_name": "Jelatek",
        "station_id": 6,
        "latitude": 3.3071,
        "longitude": 101.6804,
        "direction": "forward",
        "action": "Move forward"
      },
      {
        "step": 2,
        "station_name": "Dato' Keramat",
        "station_id": 7,
        "latitude": 3.3156,
        "longitude": 101.6858,
        "direction": "forward",
        "action": "Move forward"
      },
      {
        "step": 3,
        "station_name": "Damai",
        "station_id": 8,
        "latitude": 3.3241,
        "longitude": 101.6913,
        "direction": "forward",
        "action": "Move forward"
      },
      {
        "step": 4,
        "station_name": "Ampang Park",
        "station_id": 9,
        "latitude": 3.3326,
        "longitude": 101.6967,
        "direction": "forward",
        "action": "Move forward"
      },
      {
        "step": 5,
        "station_name": "KLCC",
        "station_id": 10,
        "latitude": 3.1588,
        "longitude": 101.7123,
        "direction": "forward",
        "action": "Move forward"
      },
      {
        "step": 6,
        "station_name": "Kampung Baru",
        "station_id": 11,
        "latitude": 3.1673,
        "longitude": 101.7068,
        "direction": "forward",
        "action": "Move forward"
      },
      {
        "step": 7,
        "station_name": "Dang Wangi",
        "station_id": 12,
        "latitude": 3.1588,
        "longitude": 101.7014,
        "direction": "forward",
        "action": "Move forward"
      },
      {
        "step": 8,
        "station_name": "Masjid Jamek (KJL)",
        "station_id": 13,
        "latitude": 3.1503,
        "longitude": 101.6959,
        "direction": "forward",
        "action": "Move forward"
      },
      {
        "step": 9,
        "station_name": "Pasar Seni (KJL)",
        "station_id": 14,
        "latitude": 3.1418,
        "longitude": 101.6905,
        "direction": "forward",
        "action": "Move forward"
      },
      {
        "step": 10,
        "station_name": "KL Sentral (KJL)",
        "station_id": 15,
        "latitude": 3.1333,
        "longitude": 101.685,
        "direction": "forward",
        "action": "Move forward"
      },
      {
        "step": 11,
        "station_name": "Bangsar",
        "station_id": 16,
        "latitude": 3.1248,
        "longitude": 101.6795,
        "direction": "forward",
        "action": "Move forward"
      },
      {
        "step": 12,
        "station_name": "Abdullah Hukum",
        "station_id": 17,
        "latitude": 3.1163,
        "longitude": 101.6741,
        "direction": "forward",
        "action": "Move forward"
      },
      {
        "step": 13,
        "station_name": "Kerinchi",
        "station_id": 18,
        "latitude": 3.1078,
        "longitude": 101.6686,
        "direction": "forward",
        "action": "Move forward"
      },
      {
        "step": 14,
        "station_name": "Universiti",
        "station_id": 19,
        "latitude": 3.0993,
        "longitude": 101.6631,
        "direction": "forward",
        "action": "Move forward"
      },
      {
        "step": 15,
        "station_name": "Taman Jaya",
        "station_id": 20,
        "latitude": 3.0908,
        "longitude": 101.6577,
        "direction": "forward",
        "action": "Move forward"
      }
    ]
  },
  "1": {
    "train_info": {
      "train_id": 1,
      "current_station_id": 8,
      "line": "SBK",
      "direction": "forward",
      "status": "active",
      "current_station_name": "Damai",
      "latitude": 3.3241,
      "longitude": 101.6913
    },
    "expected_route": [
      {
        "step": 0,
        "station_name": "Damai",
        "station_id": 8,
        "latitude": 3.3241,
        "longitude": 101.6913,
        "direction": "forward",
        "action": "Current Position"
      },
      {
        "step": 1,
        "station_name": "Ampang Park",
        "station_id": 9,
        "latitude": 3.3326,
        "longitude": 101.6967,
        "direction": "forward",
        "action": "Move forward"
      },
      {
        "step": 2,
        "station_name": "KLCC",
        "station_id": 10,
        "latitude": 3.1588,
        "longitude": 101.7123,
        "direction": "forward",
        "action": "Move forward"
      },
      {
        "step": 3,
        "station_name": "Kampung Baru",
        "station_id": 11,
        "latitude": 3.1673,
        "longitude": 101.7068,
        "direction": "forward",
        "action": "Move forward"
      },
      {
        "step": 4,
        "station_name": "Dang Wangi",
        "station_id": 12,
        "latitude": 3.1588,
        "longitude": 101.7014,
        "direction": "forward",
        "action": "Move forward"
      },
      {
        "step": 5,
        "station_name": "Masjid Jamek (KJL)",
        "station_id": 13,
        "latitude": 3.1503,
        "longitude": 101.6959,
        "direction": "forward",
        "action": "Move forward"
      },
      {
        "step": 6,
        "station_name": "Pasar Seni (KJL)",
        "station_id": 14,
        "latitude": 3.1418,
        "longitude": 101.6905,
        "direction": "forward",
        "action": "Move forward"
      },
      {
        "step": 7,
        "station_name": "KL Sentral (KJL)",
        "station_id": 15,
        "latitude": 3.1333,
        "longitude": 101.685,
        "direction": "forward",
        "action": "Move forward"
      },
      {
        "step": 8,
        "station_name": "Bangsar",
        "station_id": 16,
        "latitude": 3.1248,
        "longitude": 101.6795,
        "direction": "forward",
        "action": "Move forward"
      },
      {
        "step": 9,
        "station_name": "Abdullah Hukum",
        "station_id": 17,
        "latitude": 3.1163,
        "longitude": 101.6741,
        "direction": "forward",
        "action": "Move forward"
      },
      {
        "step": 10,
        "station_name": "Kerinchi",
        "station_id": 18,
        "latitude": 3.1078,
        "longitude": 101.6686,
        "direction": "forward",
        "action": "Move forward"
      },
      {
        "step": 11,
        "station_name": "Universiti",
        "station_id": 19,
        "latitude": 3.0993,
        "longitude": 101.6631,
        "direction": "forward",
        "action": "Move forward"
      },
      {
        "step": 12,
        "station_name": "Taman Jaya",
        "station_id": 20,
        "latitude": 3.0908,
        "longitude": 101.6577,
        "direction": "forward",
        "action": "Move forward"
      },
      {
        "step": 13,
        "station_name": "Asia Jaya",
        "station_id": 21,
        "latitude": 3.0823,
        "longitude": 101.6522,
        "direction": "forward",
        "action": "Move forward"
      },
      {
        "step": 14,
        "station_name": "Taman Paramount",
        "station_id": 22,
        "latitude": 3.0738,
        "longitude": 101.6467,
        "direction": "forward",
        "action": "Move forward"
      },
      {
        "step": 15,
        "station_name": "Taman Bahagia",
        "station_id": 23,
        "latitude": 3.0653,
        "longitude": 101.6413,
        "direction": "forward",
        "action": "Move forward"
      }
    ]
  },
  "3": {
    "train_info": {
      "train_id": 3,
      "current_station_id": 8,
      "line": "SBK",
      "direction": "forward",
      "status": "active",
      "current_station_name": "Damai",
      "latitude": 3.3241,
      "longitude": 101.6913
    },
    "expected_route": [
      {
        "step": 0,
        "station_name": "Damai",
        "station_id": 8,
        "latitude": 3.3241,
        "longitude": 101.6913,
        "direction": "forward",
        "action": "Current Position"
      },
      {
        "step": 1,
        "station_name": "Ampang Park",
        "station_id": 9,
        "latitude": 3.3326,
        "longitude": 101.6967,
        "direction": "forward",
        "action": "Move forward"
      },
      {
        "step": 2,
        "station_name": "KLCC",
        "station_id": 10,
        "latitude": 3.1588,
        "longitude": 101.7123,
        "direction": "forward",
        "action": "Move forward"
      },
      {
        "step": 3,
        "station_name": "Kampung Baru",
        "station_id": 11,
        "latitude": 3.1673,
        "longitude": 101.7068,
        "direction": "forward",
        "action": "Move forward"
      },
      {
        "step": 4,
        "station_name": "Dang Wangi",
        "station_id": 12,
        "latitude": 3.1588,
        "longitude": 101.7014,
        "direction": "forward",
        "action": "Move forward"
      },
      {
        "step": 5,
        "station_name": "Masjid Jamek (KJL)",
        "station_id": 13,
        "latitude": 3.1503,
        "longitude": 101.6959,
        "direction": "forward",
        "action": "Move forward"
      },
      {
        "step": 6,
        "station_name": "Pasar Seni (KJL)",
        "station_id": 14,
        "latitude": 3.1418,
        "longitude": 101.6905,
        "direction": "forward",
        "action": "Move forward"
      },
      {
        "step": 7,
        "station_name": "KL Sentral (KJL)",
        "station_id": 15,
        "latitude": 3.1333,
        "longitude": 101.685,
        "direction": "forward",
        "action": "Move forward"
      },
      {
        "step": 8,
        "station_name": "Bangsar",
        "station_id": 16,
        "latitude": 3.1248,
        "longitude": 101.6795,
        "direction": "forward",
        "action": "Move forward"
      },
      {
        "step": 9,
        "station_name": "Abdullah Hukum",
        "station_id": 17,
        "latitude": 3.1163,
        "longitude": 101.6741,
        "direction": "forward",
        "action": "Move forward"
      },
      {
        "step": 10,
        "station_name": "Kerinchi",
        "station_id": 18,
        "latitude": 3.1078,
        "longitude": 101.6686,
        "direction": "forward",
        "action": "Move forward"
      },
      {
        "step": 11,
        "station_name": "Universiti",
        "station_id": 19,
        "latitude": 3.0993,
        "longitude": 101.6631,
        "direction": "forward",
        "action": "Move forward"
      },
      {
        "step": 12,
        "station_name": "Taman Jaya",
        "station_id": 20,
        "latitude": 3.0908,
        "longitude": 101.6577,
        "direction": "forward",
        "action": "Move forward"
      },
      {
        "step": 13,
        "station_name": "Asia Jaya",
        "station_id": 21,
        "latitude": 3.0823,
        "longitude": 101.6522,
        "direction": "forward",
        "action": "Move forward"
      },
      {
        "step": 14,
        "station_name": "Taman Paramount",
        "station_id": 22,
        "latitude": 3.0738,
        "longitude": 101.6467,
        "direction": "forward",
        "action": "Move forward"
      },
      {
        "step": 15,
        "station_name": "Taman Bahagia",
        "station_id": 23,
        "latitude": 3.0653,
        "longitude": 101.6413,
        "direction": "forward",
        "action": "Move forward"
      }
    ]
  },
  "4": {
    "train_info": {
      "train_id": 4,
      "current_station_id": 59,
      "line": "SBK",
      "direction": "forward",
      "status": "active",
      "current_station_name": "Taman Mutiara",
      "latitude": 3.0997,
      "longitude": 101.7601
    },
    "expected_route": [
      {
        "step": 0,
        "station_name": "Taman Mutiara",
        "station_id": 59,
        "latitude": 3.0997,
        "longitude": 101.7601,
        "direction": "forward",
        "action": "Current Position"
      },
      {
        "step": 1,
        "station_name": "Taman Connaught",
        "station_id": 60,
        "latitude": 3.0917,
        "longitude": 101.7684,
        "direction": "forward",
        "action": "Move forward"
      },
      {
        "step": 2,
        "station_name": "Taman Suntex",
        "station_id": 61,
        "latitude": 3.0837,
        "longitude": 101.7767,
        "direction": "forward",
        "action": "Move forward"
      },
      {
        "step": 3,
        "station_name": "Sri Raya",
        "station_id": 62,
        "latitude": 3.0757,
        "longitude": 101.7851,
        "direction": "forward",
        "action": "Move forward"
      },
      {
        "step": 4,
        "station_name": "Bandar Tun Hussein Onn",
        "station_id": 63,
        "latitude": 3.0677,
        "longitude": 101.7934,
        "direction": "forward",
        "action": "Move forward"
      },
      {
        "step": 5,
        "station_name": "Batu 11 Cheras",
        "station_id": 64,
        "latitude": 3.0597,
        "longitude": 101.8017,
        "direction": "forward",
        "action": "Move forward"
      },
      {
        "step": 6,
        "station_name": "Bukit Dukung",
        "station_id": 65,
        "latitude": 3.0517,
        "longitude": 101.8101,
        "direction": "forward",
        "action": "Move forward"
      },
      {
        "step": 7,
        "station_name": "Sungai Jernih",
        "station_id": 66,
        "latitude": 3.0437,
        "longitude": 101.8184,
        "direction": "forward",
        "action": "Move forward"
      },
      {
        "step": 8,
        "station_name": "Stadium Kajang",
        "station_id": 67,
        "latitude": 3.0087,
        "longitude": 101.7901,
        "direction": "forward",
        "action": "Move forward"
      },
      {
        "step": 9,
        "station_name": "Kajang",
        "station_id": 68,
        "latitude": 2.9878,
        "longitude": 101.7901,
        "direction": "forward",
        "action": "Move forward"
      },
      {
        "step": 10,
        "station_name": "Stadium Kajang",
        "station_id": 67,
        "latitude": 3.0087,
        "longitude": 101.7901,
        "direction": "backward",
        "action": "Direction change to backward"
      },
      {
        "step": 11,
        "station_name": "Sungai Jernih",
        "station_id": 66,
        "latitude": 3.0437,
        "longitude": 101.8184,
        "direction": "backward",
        "action": "Move backward"
      },
      {
        "step": 12,
        "station_name": "Bukit Dukung",
        "station_id": 65,
        "latitude": 3.0517,
        "longitude": 101.8101,
        "direction": "backward",
        "action": "Move backward"
      },
      {
        "step": 13,
        "station_name": "Batu 11 Cheras",
        "station_id": 64,
        "latitude": 3.0597,
        "longitude": 101.8017,
        "direction": "backward",
        "action": "Move backward"
      },
      {
        "step": 14,
        "station_name": "Bandar Tun Hussein Onn",
        "station_id": 63,
        "latitude": 3.0677,
        "longitude": 101.7934,
        "direction": "backward",
        "action": "Move backward"
      },
      {
        "step": 15,
        "station_name": "Sri Raya",
        "station_id": 62,
        "latitude": 3.0757,
        "longitude": 101.7851,
        "direction": "backward",
        "action": "Move backward"
      }
    ]
  },
  "5": {
    "train_info": {
      "train_id": 5,
      "current_station_id": 26,
      "line": "SBK",
      "direction": "forward",
      "status": "active",
      "current_station_name": "Ara Damansara",
      "latitude": 3.0898,
      "longitude": 101.578
    },
    "expected_route": [
      {
        "step": 0,
        "station_name": "Ara Damansara",
        "station_id": 26,
        "latitude": 3.0898,
        "longitude": 101.578,
        "direction": "forward",
        "action": "Current Position"
      },
      {
        "step": 1,
        "station_name": "Glenmarie",
        "station_id": 27,
        "latitude": 3.0813,
        "longitude": 101.5725,
        "direction": "forward",
        "action": "Move forward"
      },
      {
        "step": 2,
        "station_name": "Subang Jaya",
        "station_id": 28,
        "latitude": 3.0728,
        "longitude": 101.567,
        "direction": "forward",
        "action": "Move forward"
      },
      {
        "step": 3,
        "station_name": "SS 15",
        "station_id": 29,
        "latitude": 3.0643,
        "longitude": 101.5616,
        "direction": "forward",
        "action": "Move forward"
      },
      {
        "step": 4,
        "station_name": "SS 18",
        "station_id": 30,
        "latitude": 3.0558,
        "longitude": 101.5561,
        "direction": "forward",
        "action": "Move forward"
      },
      {
        "step": 5,
        "station_name": "USJ 7 (KJL)",
        "station_id": 31,
        "latitude": 3.0473,
        "longitude": 101.5506,
        "direction": "forward",
        "action": "Move forward"
      },
      {
        "step": 6,
        "station_name": "Taipan",
        "station_id": 32,
        "latitude": 3.0388,
        "longitude": 101.5452,
        "direction": "forward",
        "action": "Move forward"
      },
      {
        "step": 7,
        "station_name": "Wawasan",
        "station_id": 33,
        "latitude": 3.0303,
        "longitude": 101.5397,
        "direction": "forward",
        "action": "Move forward"
      },
      {
        "step": 8,
        "station_name": "USJ 21",
        "station_id": 34,
        "latitude": 3.0218,
        "longitude": 101.5342,
        "direction": "forward",
        "action": "Move forward"
      },
      {
        "step": 9,
        "station_name": "Alam Megah",
        "station_id": 35,
        "latitude": 3.0133,
        "longitude": 101.5288,
        "direction": "forward",
        "action": "Move forward"
      },
      {
        "step": 10,
        "station_name": "Subang Alam",
        "station_id": 36,
        "latitude": 3.0048,
        "longitude": 101.5233,
        "direction": "forward",
        "action": "Move forward"
      },
      {
        "step": 11,
        "station_name": "Putra Heights (KJL)",
        "station_id": 37,
        "latitude": 2.9963,
        "longitude": 101.5178,
        "direction": "forward",
        "action": "Move forward"
      },
      {
        "step": 12,
        "station_name": "Subang Alam",
        "station_id": 36,
        "latitude": 3.0048,
        "longitude": 101.5233,
        "direction": "backward",
        "action": "Direction change to backward"
      },
      {
        "step": 13,
        "station_name": "Alam Megah",
        "station_id": 35,
        "latitude": 3.0133,
        "longitude": 101.5288,
        "direction": "backward",
        "action": "Move backward"
      },
      {
        "step": 14,
        "station_name": "USJ 21",
        "station_id": 34,
        "latitude": 3.0218,
        "longitude": 101.5342,
        "direction": "backward",
        "action": "Move backward"
      },
      {
        "step": 15,
        "station_name": "Wawasan",
        "station_id": 33,
        "latitude": 3.0303,
        "longitude": 101.5397,
        "direction": "backward",
        "action": "Move backward"
      }
    ]
  },
  "6": {
    "train_info": {
      "train_id": 6,
      "current_station_id": 7,
      "line": "SBK",
      "direction": "forward",
      "status": "active",
      "current_station_name": "Dato' Keramat",
      "latitude": 3.3156,
      "longitude": 101.6858
    },
    "expected_route": [
      {
        "step": 0,
        "station_name": "Dato' Keramat",
        "station_id": 7,
        "latitude": 3.3156,
        "longitude": 101.6858,
        "direction": "forward",
        "action": "Current Position"
      },
      {
        "step": 1,
        "station_name": "Damai",
        "station_id": 8,
        "latitude": 3.3241,
        "longitude": 101.6913,
        "direction": "forward",
        "action": "Move forward"
      },
      {
        "step": 2,
        "station_name": "Ampang Park",
        "station_id": 9,
        "latitude": 3.3326,
        "longitude": 101.6967,
        "direction": "forward",
        "action": "Move forward"
      },
      {
        "step": 3,
        "station_name": "KLCC",
        "station_id": 10,
        "latitude": 3.1588,
        "longitude": 101.7123,
        "direction": "forward",
        "action": "Move forward"
      },
      {
        "step": 4,
        "station_name": "Kampung Baru",
        "station_id": 11,
        "latitude": 3.1673,
        "longitude": 101.7068,
        "direction": "forward",
        "action": "Move forward"
      },
      {
        "step": 5,
        "station_name": "Dang Wangi",
        "station_id": 12,
        "latitude": 3.1588,
        "longitude": 101.7014,
        "direction": "forward",
        "action": "Move forward"
      },
      {
        "step": 6,
        "station_name": "Masjid Jamek (KJL)",
        "station_id": 13,
        "latitude": 3.1503,
        "longitude": 101.6959,
        "direction": "forward",
        "action": "Move forward"
      },
      {
        "step": 7,
        "station_name": "Pasar Seni (KJL)",
        "station_id": 14,
        "latitude": 3.1418,
        "longitude": 101.6905,
        "direction": "forward",
        "action": "Move forward"
      },
      {
        "step": 8,
        "station_name": "KL Sentral (KJL)",
        "station_id": 15,
        "latitude": 3.1333,
        "longitude": 101.685,
        "direction": "forward",
        "action": "Move forward"
      },
      {
        "step": 9,
        "station_name": "Bangsar",
        "station_id": 16,
        "latitude": 3.1248,
        "longitude": 101.6795,
        "direction": "forward",
        "action": "Move forward"
      },
      {
        "step": 10,
        "station_name": "Abdullah Hukum",
        "station_id": 17,
        "latitude": 3.1163,
        "longitude": 101.6741,
        "direction": "forward",
        "action": "Move forward"
      },
      {
        "step": 11,
        "station_name": "Kerinchi",
        "station_id": 18,
        "latitude": 3.1078,
        "longitude": 101.6686,
        "direction": "forward",
        "action": "Move forward"
      },
      {
        "step": 12,
        "station_name": "Universiti",
        "station_id": 19,
        "latitude": 3.0993,
        "longitude": 101.6631,
        "direction": "forward",
        "action": "Move forward"
      },
      {
        "step": 13,
        "station_name": "Taman Jaya",
        "station_id": 20,
        "latitude": 3.0908,
        "longitude": 101.6577,
        "direction": "forward",
        "action": "Move forward"
      },
      {
        "step": 14,
        "station_name": "Asia Jaya",
        "station_id": 21,
        "latitude": 3.0823,
        "longitude": 101.6522,
        "direction": "forward",
        "action": "Move forward"
      },
      {
        "step": 15,
        "station_name": "Taman Paramount",
        "station_id": 22,
        "latitude": 3.0738,
        "longitude": 101.6467,
        "direction": "forward",
        "action": "Move forward"
      }
    ]
  },
  "7": {
    "train_info": {
      "train_id": 7,
      "current_station_id": 26,
      "line": "SBK",
      "direction": "forward",
      "status": "active",
      "current_station_name": "Ara Damansara",
      "latitude": 3.0898,
      "longitude": 101.578
    },
    "expected_route": [
      {
        "step": 0,
        "station_name": "Ara Damansara",
        "station_id": 26,
        "latitude": 3.0898,
        "longitude": 101.578,
        "direction": "forward",
        "action": "Current Position"
      },
      {
        "step": 1,
        "station_name": "Glenmarie",
        "station_id": 27,
        "latitude": 3.0813,
        "longitude": 101.5725,
        "direction": "forward",
        "action": "Move forward"
      },
      {
        "step": 2,
        "station_name": "Subang Jaya",
        "station_id": 28,
        "latitude": 3.0728,
        "longitude": 101.567,
        "direction": "forward",
        "action": "Move forward"
      },
      {
        "step": 3,
        "station_name": "SS 15",
        "station_id": 29,
        "latitude": 3.0643,
        "longitude": 101.5616,
        "direction": "forward",
        "action": "Move forward"
      },
      {
        "step": 4,
        "station_name": "SS 18",
        "station_id": 30,
        "latitude": 3.0558,
        "longitude": 101.5561,
        "direction": "forward",
        "action": "Move forward"
      },
      {
        "step": 5,
        "station_name": "USJ 7 (KJL)",
        "station_id": 31,
        "latitude": 3.0473,
        "longitude": 101.5506,
        "direction": "forward",
        "action": "Move forward"
      },
      {
        "step": 6,
        "station_name": "Taipan",
        "station_id": 32,
        "latitude": 3.0388,
        "longitude": 101.5452,
        "direction": "forward",
        "action": "Move forward"
      },
      {
        "step": 7,
        "station_name": "Wawasan",
        "station_id": 33,
        "latitude": 3.0303,
        "longitude": 101.5397,
        "direction": "forward",
        "action": "Move forward"
      },
      {
        "step": 8,
        "station_name": "USJ 21",
        "station_id": 34,
        "latitude": 3.0218,
        "longitude": 101.5342,
        "direction": "forward",
        "action": "Move forward"
      },
      {
        "step": 9,
        "station_name": "Alam Megah",
        "station_id": 35,
        "latitude": 3.0133,
        "longitude": 101.5288,
        "direction": "forward",
        "action": "Move forward"
      },
      {
        "step": 10,
        "station_name": "Subang Alam",
        "station_id": 36,
        "latitude": 3.0048,
        "longitude": 101.5233,
        "direction": "forward",
        "action": "Move forward"
      },
      {
        "step": 11,
        "station_name": "Putra Heights (KJL)",
        "station_id": 37,
        "latitude": 2.9963,
        "longitude": 101.5178,
        "direction": "forward",
        "action": "Move forward"
      },
      {
        "step": 12,
        "station_name": "Subang Alam",
        "station_id": 36,
        "latitude": 3.0048,
        "longitude": 101.5233,
        "direction": "backward",
        "action": "Direction change to backward"
      },
      {
        "step": 13,
        "station_name": "Alam Megah",
        "station_id": 35,
        "latitude": 3.0133,
        "longitude": 101.5288,
        "direction": "backward",
        "action": "Move backward"
      },
      {
        "step": 14,
        "station_name": "USJ 21",
        "station_id": 34,
        "latitude": 3.0218,
        "longitude": 101.5342,
        "direction": "backward",
        "action": "Move backward"
      },
      {
        "step": 15,
        "station_name": "Wawasan",
        "station_id": 33,
        "latitude": 3.0303,
        "longitude": 101.5397,
        "direction": "backward",
        "action": "Move backward"
      }
    ]
  },
  "8": {
    "train_info": {
      "train_id": 8,
      "current_station_id": 23,
      "line": "SBK",
      "direction": "forward",
      "status": "active",
      "current_station_name": "Taman Bahagia",
      "latitude": 3.0653,
      "longitude": 101.6413
    },
    "expected_route": [
      {
        "step": 0,
        "station_name": "Taman Bahagia",
        "station_id": 23,
        "latitude": 3.0653,
        "longitude": 101.6413,
        "direction": "forward",
        "action": "Current Position"
      },
      {
        "step": 1,
        "station_name": "Kelana Jaya",
        "station_id": 24,
        "latitude": 3.1068,
        "longitude": 101.5889,
        "direction": "forward",
        "action": "Move forward"
      },
      {
        "step": 2,
        "station_name": "Lembah Subang",
        "station_id": 25,
        "latitude": 3.0983,
        "longitude": 101.5834,
        "direction": "forward",
        "action": "Move forward"
      },
      {
        "step": 3,
        "station_name": "Ara Damansara",
        "station_id": 26,
        "latitude": 3.0898,
        "longitude": 101.578,
        "direction": "forward",
        "action": "Move forward"
      },
      {
        "step": 4,
        "station_name": "Glenmarie",
        "station_id": 27,
        "latitude": 3.0813,
        "longitude": 101.5725,
        "direction": "forward",
        "action": "Move forward"
      },
      {
        "step": 5,
        "station_name": "Subang Jaya",
        "station_id": 28,
        "latitude": 3.0728,
        "longitude": 101.567,
        "direction": "forward",
        "action": "Move forward"
      },
      {
        "step": 6,
        "station_name": "SS 15",
        "station_id": 29,
        "latitude": 3.0643,
        "longitude": 101.5616,
        "direction": "forward",
        "action": "Move forward"
      },
      {
        "step": 7,
        "station_name": "SS 18",
        "station_id": 30,
        "latitude": 3.0558,
        "longitude": 101.5561,
        "direction": "forward",
        "action": "Move forward"
      },
      {
        "step": 8,
        "station_name": "USJ 7 (KJL)",
        "station_id": 31,
        "latitude": 3.0473,
        "longitude": 101.5506,
        "direction": "forward",
        "action": "Move forward"
      },
      {
        "step": 9,
        "station_name": "Taipan",
        "station_id": 32,
        "latitude": 3.0388,
        "longitude": 101.5452,
        "direction": "forward",
        "action": "Move forward"
      },
      {
        "step": 10,
        "station_name": "Wawasan",
        "station_id": 33,
        "latitude": 3.0303,
        "longitude": 101.5397,
        "direction": "forward",
        "action": "Move forward"
      },
      {
        "step": 11,
        "station_name": "USJ 21",
        "station_id": 34,
        "latitude": 3.0218,
        "longitude": 101.5342,
        "direction": "forward",
        "action": "Move forward"
      },
      {
        "step": 12,
        "station_name": "Alam Megah",
        "station_id": 35,
        "latitude": 3.0133,
        "longitude": 101.5288,
        "direction": "forward",
        "action": "Move forward"
      },
      {
        "step": 13,
        "station_name": "Subang Alam",
        "station_id": 36,
        "latitude": 3.0048,
        "longitude": 101.5233,
        "direction": "forward",
        "action": "Move forward"
      },
      {
        "step": 14,
        "station_name": "Putra Heights (KJL)",
        "station_id": 37,
        "latitude": 2.9963,
        "longitude": 101.5178,
        "direction": "forward",
        "action": "Move forward"
      },
      {
        "step": 15,
        "station_name": "Subang Alam",
        "station_id": 36,
        "latitude": 3.0048,
        "longitude": 101.5233,
        "direction": "backward",
        "action": "Direction change to backward"
      }
    ]
  },
  "9": {
    "train_info": {
      "train_id": 9,
      "current_station_id": 53,
      "line": "SBK",
      "direction": "forward",
      "status": "active",
      "current_station_name": "Bukit Bintang",
      "latitude": 3.1477,
      "longitude": 101.7101
    },
    "expected_route": [
      {
        "step": 0,
        "station_name": "Bukit Bintang",
        "station_id": 53,
        "latitude": 3.1477,
        "longitude": 101.7101,
        "direction": "forward",
        "action": "Current Position"
      },
      {
        "step": 1,
        "station_name": "Tun Razak Exchange (TRX)",
        "station_id": 54,
        "latitude": 3.1397,
        "longitude": 101.7184,
        "direction": "forward",
        "action": "Move forward"
      },
      {
        "step": 2,
        "station_name": "Cochrane",
        "station_id": 55,
        "latitude": 3.1317,
        "longitude": 101.7267,
        "direction": "forward",
        "action": "Move forward"
      },
      {
        "step": 3,
        "station_name": "Maluri (SBK)",
        "station_id": 56,
        "latitude": 3.1237,
        "longitude": 101.7351,
        "direction": "forward",
        "action": "Move forward"
      },
      {
        "step": 4,
        "station_name": "Taman Pertama",
        "station_id": 57,
        "latitude": 3.1157,
        "longitude": 101.7434,
        "direction": "forward",
        "action": "Move forward"
      },
      {
        "step": 5,
        "station_name": "Taman Midah",
        "station_id": 58,
        "latitude": 3.1077,
        "longitude": 101.7517,
        "direction": "forward",
        "action": "Move forward"
      },
      {
        "step": 6,
        "station_name": "Taman Mutiara",
        "station_id": 59,
        "latitude": 3.0997,
        "longitude": 101.7601,
        "direction": "forward",
        "action": "Move forward"
      },
      {
        "step": 7,
        "station_name": "Taman Connaught",
        "station_id": 60,
        "latitude": 3.0917,
        "longitude": 101.7684,
        "direction": "forward",
        "action": "Move forward"
      },
      {
        "step": 8,
        "station_name": "Taman Suntex",
        "station_id": 61,
        "latitude": 3.0837,
        "longitude": 101.7767,
        "direction": "forward",
        "action": "Move forward"
      },
      {
        "step": 9,
        "station_name": "Sri Raya",
        "station_id": 62,
        "latitude": 3.0757,
        "longitude": 101.7851,
        "direction": "forward",
        "action": "Move forward"
      },
      {
        "step": 10,
        "station_name": "Bandar Tun Hussein Onn",
        "station_id": 63,
        "latitude": 3.0677,
        "longitude": 101.7934,
        "direction": "forward",
        "action": "Move forward"
      },
      {
        "step": 11,
        "station_name": "Batu 11 Cheras",
        "station_id": 64,
        "latitude": 3.0597,
        "longitude": 101.8017,
        "direction": "forward",
        "action": "Move forward"
      },
      {
        "step": 12,
        "station_name": "Bukit Dukung",
        "station_id": 65,
        "latitude": 3.0517,
        "longitude": 101.8101,
        "direction": "forward",
        "action": "Move forward"
      },
      {
        "step": 13,
        "station_name": "Sungai Jernih",
        "station_id": 66,
        "latitude": 3.0437,
        "longitude": 101.8184,
        "direction": "forward",
        "action": "Move forward"
      },
      {
        "step": 14,
        "station_name": "Stadium Kajang",
        "station_id": 67,
        "latitude": 3.0087,
        "longitude": 101.7901,
        "direction": "forward",
        "action": "Move forward"
      },
      {
        "step": 15,
        "station_name": "Kajang",
        "station_id": 68,
        "latitude": 2.9878,
        "longitude": 101.7901,
        "direction": "forward",
        "action": "Move forward"
      }
    ]
  },
  "10": {
    "train_info": {
      "train_id": 10,
      "current_station_id": 7,
      "line": "SBK",
      "direction": "forward",
      "status": "active",
      "current_station_name": "Dato' Keramat",
      "latitude": 3.3156,
      "longitude": 101.6858
    },
    "expected_route": [
      {
        "step": 0,
        "station_name": "Dato' Keramat",
        "station_id": 7,
        "latitude": 3.3156,
        "longitude": 101.6858,
        "direction": "forward",
        "action": "Current Position"
      },
      {
        "step": 1,
        "station_name": "Damai",
        "station_id": 8,
        "latitude": 3.3241,
        "longitude": 101.6913,
        "direction": "forward",
        "action": "Move forward"
      },
      {
        "step": 2,
        "station_name": "Ampang Park",
        "station_id": 9,
        "latitude": 3.3326,
        "longitude": 101.6967,
        "direction": "forward",
        "action": "Move forward"
      },
      {
        "step": 3,
        "station_name": "KLCC",
        "station_id": 10,
        "latitude": 3.1588,
        "longitude": 101.7123,
        "direction": "forward",
        "action": "Move forward"
      },
      {
        "step": 4,
        "station_name": "Kampung Baru",
        "station_id": 11,
        "latitude": 3.1673,
        "longitude": 101.7068,
        "direction": "forward",
        "action": "Move forward"
      },
      {
        "step": 5,
        "station_name": "Dang Wangi",
        "station_id": 12,
        "latitude": 3.1588,
        "longitude": 101.7014,
        "direction": "forward",
        "action": "Move forward"
      },
      {
        "step": 6,
        "station_name": "Masjid Jamek (KJL)",
        "station_id": 13,
        "latitude": 3.1503,
        "longitude": 101.6959,
        "direction": "forward",
        "action": "Move forward"
      },
      {
        "step": 7,
        "station_name": "Pasar Seni (KJL)",
        "station_id": 14,
        "latitude": 3.1418,
        "longitude": 101.6905,
        "direction": "forward",
        "action": "Move forward"
      },
      {
        "step": 8,
        "station_name": "KL Sentral (KJL)",
        "station_id": 15,
        "latitude": 3.1333,
        "longitude": 101.685,
        "direction": "forward",
        "action": "Move forward"
      },
      {
        "step": 9,
        "station_name": "Bangsar",
        "station_id": 16,
        "latitude": 3.1248,
        "longitude": 101.6795,
        "direction": "forward",
        "action": "Move forward"
      },
      {
        "step": 10,
        "station_name": "Abdullah Hukum",
        "station_id": 17,
        "latitude": 3.1163,
        "longitude": 101.6741,
        "direction": "forward",
        "action": "Move forward"
      },
      {
        "step": 11,
        "station_name": "Kerinchi",
        "station_id": 18,
        "latitude": 3.1078,
        "longitude": 101.6686,
        "direction": "forward",
        "action": "Move forward"
      },
      {
        "step": 12,
        "station_name": "Universiti",
        "station_id": 19,
        "latitude": 3.0993,
        "longitude": 101.6631,
        "direction": "forward",
        "action": "Move forward"
      },
      {
        "step": 13,
        "station_name": "Taman Jaya",
        "station_id": 20,
        "latitude": 3.0908,
        "longitude": 101.6577,
        "direction": "forward",
        "action": "Move forward"
      },
      {
        "step": 14,
        "station_name": "Asia Jaya",
        "station_id": 21,
        "latitude": 3.0823,
        "longitude": 101.6522,
        "direction": "forward",
        "action": "Move forward"
      },
      {
        "step": 15,
        "station_name": "Taman Paramount",
        "station_id": 22,
        "latitude": 3.0738,
        "longitude": 101.6467,
        "direction": "forward",
        "action": "Move forward"
      }
    ]
  },
  "15": {
    "train_info": {
      "train_id": 15,
      "current_station_id": 45,
      "line": "SBK",
      "direction": "forward",
      "status": "active",
      "current_station_name": "Bandar Utama",
      "latitude": 3.1702,
      "longitude": 101.6021
    },
    "expected_route": [
      {
        "step": 0,
        "station_name": "Bandar Utama",
        "station_id": 45,
        "latitude": 3.1702,
        "longitude": 101.6021,
        "direction": "forward",
        "action": "Current Position"
      },
      {
        "step": 1,
        "station_name": "TTDI",
        "station_id": 46,
        "latitude": 3.1617,
        "longitude": 101.6075,
        "direction": "forward",
        "action": "Move forward"
      },
      {
        "step": 2,
        "station_name": "Phileo Damansara",
        "station_id": 47,
        "latitude": 3.1532,
        "longitude": 101.613,
        "direction": "forward",
        "action": "Move forward"
      },
      {
        "step": 3,
        "station_name": "Pusat Bandar Damansara",
        "station_id": 48,
        "latitude": 3.1447,
        "longitude": 101.6184,
        "direction": "forward",
        "action": "Move forward"
      },
      {
        "step": 4,
        "station_name": "Semantan",
        "station_id": 49,
        "latitude": 3.1362,
        "longitude": 101.6239,
        "direction": "forward",
        "action": "Move forward"
      },
      {
        "step": 5,
        "station_name": "Muzium Negara",
        "station_id": 50,
        "latitude": 3.1417,
        "longitude": 101.6897,
        "direction": "forward",
        "action": "Move forward"
      },
      {
        "step": 6,
        "station_name": "Pasar Seni (SBK)",
        "station_id": 51,
        "latitude": 3.1418,
        "longitude": 101.6905,
        "direction": "forward",
        "action": "Move forward"
      },
      {
        "step": 7,
        "station_name": "Merdeka",
        "station_id": 52,
        "latitude": 3.1478,
        "longitude": 101.6956,
        "direction": "forward",
        "action": "Move forward"
      },
      {
        "step": 8,
        "station_name": "Bukit Bintang",
        "station_id": 53,
        "latitude": 3.1477,
        "longitude": 101.7101,
        "direction": "forward",
        "action": "Move forward"
      },
      {
        "step": 9,
        "station_name": "Tun Razak Exchange (TRX)",
        "station_id": 54,
        "latitude": 3.1397,
        "longitude": 101.7184,
        "direction": "forward",
        "action": "Move forward"
      },
      {
        "step": 10,
        "station_name": "Cochrane",
        "station_id": 55,
        "latitude": 3.1317,
        "longitude": 101.7267,
        "direction": "forward",
        "action": "Move forward"
      },
      {
        "step": 11,
        "station_name": "Maluri (SBK)",
        "station_id": 56,
        "latitude": 3.1237,
        "longitude": 101.7351,
        "direction": "forward",
        "action": "Move forward"
      },
      {
        "step": 12,
        "station_name": "Taman Pertama",
        "station_id": 57,
        "latitude": 3.1157,
        "longitude": 101.7434,
        "direction": "forward",
        "action": "Move forward"
      },
      {
        "step": 13,
        "station_name": "Taman Midah",
        "station_id": 58,
        "latitude": 3.1077,
        "longitude": 101.7517,
        "direction": "forward",
        "action": "Move forward"
      },
      {
        "step": 14,
        "station_name": "Taman Mutiara",
        "station_id": 59,
        "latitude": 3.0997,
        "longitude": 101.7601,
        "direction": "forward",
        "action": "Move forward"
      },
      {
        "step": 15,
        "station_name": "Taman Connaught",
        "station_id": 60,
        "latitude": 3.0917,
        "longitude": 101.7684,
        "direction": "forward",
        "action": "Move forward"
      }
    ]
  }
}